[{"cinema_id": "5775", "name": "沈丘恒丰奥斯卡影城", "address": "沈丘县富都大道永基新城3楼", "telphone": "0394-5266699", "location": {"lat": "33.407364", "lng": "115.0922"}, "avatar": "http://p0.meituan.net/shopmainpic/177a8189cc23cf20ba309ae006748b1a2486459.jpg@292w_292h_1e_1c"}, {"cinema_id": "16066", "name": "奥斯卡影城(商水店)", "address": "商水县周商路与纬一路交叉口君约香山购物广场负一层", "telphone": "0394-5457777", "location": {"lat": "33.556023", "lng": "114.61634"}, "avatar": "http://p1.meituan.net/deal/201208/22/1_0822151022.jpg@292w_292h_1e_1c"}, {"cinema_id": "296", "name": "奥斯卡新视界影城(商贸城店)", "address": "郸城县幸福路商贸城西门奥斯卡电影城3楼", "telphone": "0394-3212800 0394-3212822", "location": {"lat": "33.640152", "lng": "115.19459"}, "avatar": "http://p1.meituan.net/shopmainpic/3a99164cccb06283a0fa007bc7ec497a40561.jpg@292w_292h_1e_1c"}, {"cinema_id": "24710", "name": "中影新天地影城", "address": "鹿邑县紫气大道与西迎宾大道交叉口新天地3楼", "telphone": "0394-8711555", "location": {"lat": "33.85965", "lng": "115.44051"}, "avatar": "http://p1.meituan.net/deal/201208/22/1_0822151022.jpg@292w_292h_1e_1c"}, {"cinema_id": "23987", "name": "周口中影巨幕全景声影城", "address": "川汇区建新路与八一大道交叉口一峰城市广场6F", "telphone": "0394-8589988", "location": {"lat": "33.608543", "lng": "114.65706"}, "avatar": "http://p1.meituan.net/deal/201208/22/1_0822151022.jpg@292w_292h_1e_1c"}, {"cinema_id": "14994", "name": "太康万里奥斯卡国际影城", "address": "太康县交通路2号万里新万悦购物广场6楼（万里车站隔壁）", "telphone": "0394-6633777", "location": {"lat": "34.06488", "lng": "114.86"}, "avatar": "http://p0.meituan.net/shopmainpic/a5fc4dcc0e951ef898f3c2337ccc4d681969024.jpg@292w_292h_1e_1c"}, {"cinema_id": "13838", "name": "太康环球国际影城", "address": "太康县建设路中段万鹤赉院内北门二楼", "telphone": "0394-8767789", "location": {"lat": "34.065704", "lng": "114.86343"}, "avatar": "http://p0.meituan.net/shopmainpic/2cce36c08a37e1bdecac7a2d68460c3152138.jpg@292w_292h_1e_1c"}, {"cinema_id": "16002", "name": "奥斯卡全景声巨幕影城(郸城店)", "address": "郸城县新华路中段建业购物广场四楼", "telphone": "0394-3227899", "location": {"lat": "33.64168", "lng": "115.19495"}, "avatar": "http://p1.meituan.net/deal/201208/22/1_0822151022.jpg@292w_292h_1e_1c"}, {"cinema_id": "5764", "name": "广文电影城", "address": "川汇区中州路北段关帝庙广场对面", "telphone": "0394-8523999", "location": {"lat": "33.629776", "lng": "114.645744"}, "avatar": "http://p0.meituan.net/deal/__47702324__6823909.jpg@292w_292h_1e_1c"}, {"cinema_id": "24200", "name": "淮阳天鸿中影数字影城", "address": "淮阳县羲皇大道与清风路交叉口天鸿世贸广场西门4楼", "telphone": "0394-8966100", "location": {"lat": "33.742023", "lng": "114.8541"}, "avatar": "http://p1.meituan.net/deal/201208/22/1_0822151022.jpg@292w_292h_1e_1c"}, {"cinema_id": "10972", "name": "淮阳奥斯卡国际影城", "address": "淮阳县红旗百货东50米（原人民会堂）", "telphone": "0394-2667788", "location": {"lat": "33.73291", "lng": "114.89038"}, "avatar": "http://p1.meituan.net/shopmainpic/3657027f2be6bd76b7e9a11e1a35e714202098.jpg@292w_292h_1e_1c"}, {"cinema_id": "23784", "name": "项城激光巨幕影城(广场奥斯卡店)", "address": "项城市团结路68号人民会堂（西大街南）", "telphone": "0394-4255555", "location": {"lat": "33.444386", "lng": "114.900314"}, "avatar": "http://p1.meituan.net/deal/201208/22/1_0822151022.jpg@292w_292h_1e_1c"}, {"cinema_id": "17225", "name": "项城睿智新天地激光影城", "address": "项城市标南100米路西睿智时尚新天地", "telphone": "0394-7888088", "location": {"lat": "33.44124", "lng": "114.88421"}, "avatar": "http://p1.meituan.net/deal/201208/22/1_0822151022.jpg@292w_292h_1e_1c"}, {"cinema_id": "17265", "name": "鹿邑县奥斯卡华联国际影城", "address": "鹿邑县紫气大道西段华联商厦五楼（西关）", "telphone": "0394-7723333 0394-7729191", "location": {"lat": "33.858097", "lng": "115.459694"}, "avatar": "http://p1.meituan.net/deal/201208/22/1_0822151022.jpg@292w_292h_1e_1c"}, {"cinema_id": "17053", "name": "龙瑞奥斯卡影城", "address": "扶沟县将军路与力神大道交叉口向南700米路东龙瑞温泉俱乐部5楼", "telphone": "0394-6201999", "location": {"lat": "34.032917", "lng": "114.412"}, "avatar": "http://p1.meituan.net/deal/201208/22/1_0822151022.jpg@292w_292h_1e_1c"}, {"cinema_id": "14689", "name": "奥斯卡国际影城(沈丘店)", "address": "沈丘县槐店回族镇淮河路隆鼎国贸商场6楼", "telphone": "0394-5666655", "location": {"lat": "33.40423", "lng": "115.09224"}, "avatar": "http://p1.meituan.net/shopmainpic/49cf4d930d5c3adf78f995d4311ba3a649697.jpg@292w_292h_1e_1c"}, {"cinema_id": "5423", "name": "潇湘国际影城", "address": "川汇区五一路与步行街交叉口西南角（五一路育新街交叉口路西）", "telphone": "0394-8683339", "location": {"lat": "33.61555", "lng": "114.64882"}, "avatar": "http://p0.meituan.net/poi/4265d8b6ab40900616300702f4c9459077434.jpg@292w_292h_1e_1c"}, {"cinema_id": "297", "name": "奥斯卡影城(周口店)", "address": "川汇区七一路中段天下诚商场6楼（近中国邮政）", "telphone": "0394-8635888", "location": {"lat": "33.617386", "lng": "114.647385"}, "avatar": "http://p1.meituan.net/mogu/b5dd7521b8c18e4450a3ea9a34d4f9a879753.jpg@292w_292h_1e_1c"}, {"cinema_id": "10517", "name": "广电奥斯卡影视城", "address": "川汇区周口大道与文昌大道大转盘向南100米路东（周口广播电视台院内）", "telphone": "0394-8125666", "location": {"lat": "33.629604", "lng": "114.69677"}, "avatar": "http://p1.meituan.net/deal/ac473e5f51b17fbc7e322aa3227b301c115726.jpg@292w_292h_1e_1c"}, {"cinema_id": "13858", "name": "奥斯卡国际影城(扶沟店)", "address": "扶沟县文化路西段（地税局城关分局对面）", "telphone": "0394-6218777", "location": {"lat": "34.05221", "lng": "114.38652"}, "avatar": "http://p1.meituan.net/shopmainpic/623e262ac6b0f09b27e20bd21f366203328277.jpg@292w_292h_1e_1c"}, {"cinema_id": "13282", "name": "尚亿国际影城", "address": "西华县女娲广场人民商场对面", "telphone": "0394-8791881", "location": {"lat": "33.788334", "lng": "114.53181"}, "avatar": "http://p1.meituan.net/shopmainpic/1078e1a9ecad704fcbe58ff90ccf2033117000.jpg@292w_292h_1e_1c"}, {"cinema_id": "16281", "name": "润德奥斯卡影城(旗舰店)", "address": "商水县行政东路润德财富广场5楼奥斯卡影城", "telphone": "0394-5828888", "location": {"lat": "33.54187", "lng": "114.61575"}, "avatar": "http://p1.meituan.net/deal/201208/22/1_0822151022.jpg@292w_292h_1e_1c"}, {"cinema_id": "16697", "name": "西华奥斯卡影城", "address": "西华县箕城路中段路东银座4楼", "telphone": "0394-2556688", "location": {"lat": "33.790524", "lng": "114.53254"}, "avatar": "http://p1.meituan.net/deal/201208/22/1_0822151022.jpg@292w_292h_1e_1c"}, {"cinema_id": "25593", "name": "金太狼国际影城(郸城店)", "address": "郸城县润商购物中心3楼", "telphone": "0394-8728768 0394-8728769", "location": {"lat": "33.628437", "lng": "115.17708"}, "avatar": "http://p1.meituan.net/deal/201208/22/1_0822151022.jpg@292w_292h_1e_1c"}, {"cinema_id": "12944", "name": "奥斯卡国际影城(鹿邑店)", "address": "鹿邑县紫气大道东段311国道太清宫向西1000米路南", "telphone": "0394-7685888", "location": {"lat": "33.859222", "lng": "115.52953"}, "avatar": "http://p0.meituan.net/shopmainpic/a8f070612a1772edf0d95215f163de57260010.jpg@292w_292h_1e_1c"}, {"cinema_id": "13864", "name": "奥斯卡影城", "address": "项城市湖滨路欧蓓莎国际商城4号楼4楼", "telphone": "0394-4666555", "location": {"lat": "33.432934", "lng": "114.87156"}, "avatar": "http://p1.meituan.net/shopmainpic/89b877f227a6b5b7bdb290d347247c48246216.jpg@292w_292h_1e_1c"}]